veiculo_id,ordem_na_rota,entrega_id,hospital_id,hospital_nome,prioridade,peso_kg,tempo_entrega_min,lat,lng
V1,1,96,96,Centro de Saúde Básica 11 - DST/AIDS,BAIXA,51.73,10,-15.7736077,-47.8929665
V1,2,97,97,UBS 03 Vila Planalto,ALTA,43.88,60,-15.795264,-47.8485535
V1,3,6,6,Hospital Regional de Ceilândia (HRC),ALTA,32.56,10,-15.8151346,-48.0970021
V1,4,7,7,Hospital Regional do Gama (HRG),BAIXA,25.05,60,-16.023695,-48.0697835
V1,5,61,61,UUBS 5 Santa Maria,CRITICA,79.73,10,-16.0103369,-48.0024363
V1,6,62,62,UBS 8 Santa Maria,ALTA,88.07,30,-16.0144018,-47.9910585
V1,7,63,63,UBS 9 Santa Maria,CRITICA,54.25,15,-16.0197626,-48.0251117
V1,8,64,64,UBS 2 Gama,ALTA,77.74,60,-16.0365657,-48.0637311
V1,9,65,65,UBS 4 Gama,ALTA,62.02,45,-16.0260783,-48.0596889
V1,10,66,66,UBS 3 Guará,ALTA,26.09,60,-15.8495004,-47.9708464
V2,1,67,67,UBS 10 Recanto das Emas,CRITICA,55.04,10,-15.9300077,-48.1089857
V2,2,68,68,UBS 7 Ceilândia,ALTA,67.84,45,-15.7957206,-48.1335935
V2,3,73,73,UPA Ceilândia I,CRITICA,18.27,15,-15.8080671,-48.1384168
V2,4,74,74,UPA Ceilândia II,ALTA,99.89,10,-15.790951,-48.1376898
V2,5,75,75,UPA Recanto das Emas,ALTA,49.41,30,-15.9117854,-48.0600112
V2,6,76,76,UPA Samambaia,ALTA,18.1,10,-15.8831351,-48.102718
V2,7,2,2,Hospital Regional da Asa Norte (HRAN),CRITICA,76.59,60,-15.7847168,-47.8841754
V2,8,3,3,Hospital Universitário de Brasília (HUB),CRITICA,43.44,30,-15.771302,-47.8743633
V2,9,43,43,UBS 01 Riacho Fundo II,ALTA,85.95,30,-15.9093234,-48.0607011
V2,10,44,44,UBS 01 Águas Claras,BAIXA,36.12,60,-15.8543943,-48.038247
V3,1,45,45,UBS 01 Vicente Pires,ALTA,34.61,15,-15.819232,-48.0246858
V3,2,46,46,UBS 01 Fercal,ALTA,26.4,20,-15.6005831,-47.8731391
V3,3,47,47,UBS 01 Sobradinho II,BAIXA,26.94,10,-15.6438775,-47.8268803
V3,4,48,48,UBS 02 Sobradinho,MEDIA,11.05,10,-15.6438514,-47.8346051
V3,5,20,20,Hospital Militar de Área de Brasília (HMAB),MEDIA,36.78,45,-15.7727535,-47.9308535
V3,6,1,1,Hospital de Base do Distrito Federal (IHBDF),CRITICA,76.81,10,-15.8006717,-47.8891625
V3,7,4,4,Hospital Materno Infantil de Brasília (HMIB),MEDIA,34.99,15,-15.8238177,-47.8975294
V3,8,78,78,UPA São Sebastião,ALTA,92.2,20,-15.9009588,-47.7801697
V3,9,79,79,UPA Núcleo Bandeirante,MEDIA,75.72,45,-15.8759336,-47.9847267
V3,10,80,80,UPA Vicente Pires,ALTA,14.24,30,-15.7971406,-48.0272268
V4,1,82,82,UPA Gama,CRITICA,44.84,60,-16.0149838,-48.0567389
V4,2,88,88,Policlínica do Gama,MEDIA,26.93,60,-16.0189655,-48.0708479
V4,3,89,89,Policlínica do Riacho Fundo 1,BAIXA,72.01,15,-15.881162,-48.0106085
V4,4,90,90,Hospital Sarah Kubitschek (Asa Sul),MEDIA,17.12,30,-15.7994698,-47.8936904
V4,5,91,91,Hospital Sarah Kubitschek (Lago Norte),MEDIA,44.96,10,-15.7525437,-47.8326085
V4,6,92,92,Instituto de Cardiologia do DF (ICDF),ALTA,69.88,45,-15.8009982,-47.9373327
V4,7,81,81,UPA Planaltina,MEDIA,77.17,30,-15.6168213,-47.6912723
V4,8,8,8,Hospital Regional de Sobradinho (HRS),BAIXA,21.14,20,-15.6484601,-47.7931691
V4,9,9,9,Hospital Regional de Planaltina (HRPL),BAIXA,15.47,15,-15.6253154,-47.653472
V4,10,10,10,Hospital Regional de Samambaia (HRSAM),ALTA,51.74,10,-15.8532367,-48.073427
V5,1,11,11,Hospital Regional de Santa Maria (HRSM),MEDIA,76.29,15,-16.0401658,-48.0372133
V5,2,12,12,Hospital Regional de Brazlândia (HRBZ),BAIXA,16.34,10,-15.6752771,-48.2036875
V5,3,13,13,Hospital Regional do Paranoá (HRP),BAIXA,25.55,60,-15.7814012,-47.7824032
V5,4,14,14,Hospital Regional do Guará (HRGU),MEDIA,10.3,30,-15.8179263,-47.9866569
V5,5,15,15,Hospital de Apoio de Brasília (HAB),MEDIA,13.96,15,-15.7559401,-47.9226774
V5,6,16,16,Hospital da Criança de Brasília (HCB),CRITICA,73.15,30,-15.7584695,-47.9199696
V5,7,17,17,Hospital São Vicente de Paulo (HSVP),MEDIA,21.37,60,-15.8372373,-48.0600197
V5,8,18,18,Hospital das Forças Armadas (HFA),BAIXA,54.6,20,-15.8012324,-47.9373345
V5,9,19,19,Hospital de Força Aérea de Brasília (HFAB),MEDIA,59.24,45,-15.8708877,-47.9031913
V5,10,21,21,Hospital Naval de Brasília,ALTA,99.0,60,-15.8147858,-47.9150437
V6,1,22,22,UBS 01 Taguatinga Norte,MEDIA,30.55,45,-15.7955812,-48.0672329
V6,2,23,23,UBS 02 Taguatinga Norte,CRITICA,73.13,60,-15.8104012,-48.0635838
V6,3,24,24,UBS 03 Taguatinga Norte,CRITICA,54.53,30,-15.8331049,-48.0871074
V6,4,25,25,UBS 05 Taguatinga Sul,CRITICA,30.68,15,-15.8508435,-48.0472145
V6,5,26,26,UBS 06 Taguatinga Sul,ALTA,97.37,20,-15.8362722,-48.0642048
V6,6,27,27,UBS 07 Taguatinga Norte,ALTA,48.11,20,-15.8009132,-48.0946952
V6,7,28,28,UBS 01 Santa Maria,CRITICA,24.22,45,-16.027209,-48.027008
V6,8,29,29,UBS 02 Santa Maria,MEDIA,33.42,30,-16.0079432,-47.9904955
V6,9,30,30,UBS 01 São Sebastião,MEDIA,33.05,45,-15.902439,-47.7729157
V6,10,31,31,UBS 01 Recanto das Emas,CRITICA,23.66,10,-15.918988,-48.1049332
V6,11,5,5,Hospital Regional de Taguatinga (HRT),MEDIA,99.75,30,-15.8226725,-48.0691403
V7,1,32,32,UBS 01 Estrutural,ALTA,43.3,20,-15.7836403,-47.9998093
V7,2,33,33,UBS 01 Varjão,CRITICA,34.08,30,-15.7100527,-47.8798177
V7,3,34,34,UBS 01 Itapoã,CRITICA,78.6,45,-15.7403029,-47.7649014
V7,4,35,35,UBS 01 Jardins Mangueiral,ALTA,65.81,20,-15.8946668,-47.81744533
V7,5,77,77,UPA Sobradinho,CRITICA,26.02,15,-15.6395176,-47.8222068
V7,6,99,99,Centro de Atenção Psicossocial CAPS II Planaltina,BAIXA,78.79,15,-15.624939,-47.6512695
V7,7,49,49,UBS 01 Planaltina (Vila Buritis),BAIXA,76.2,60,-15.6177452,-47.6436237
V7,8,50,50,UBS 02 Planaltina,MEDIA,98.44,20,-15.534044,-47.7114942
V7,9,51,51,UBS 01 Paranoá,MEDIA,49.16,60,-15.7692068,-47.7825042
V7,10,52,52,UBS 01 Lago Norte,CRITICA,28.48,45,-15.725496,-47.8764125
V8,1,53,53,UBS 01 Lago Sul,ALTA,97.77,45,-15.8470842,-47.85473
V8,2,54,54,UBS 01 Gama,MEDIA,52.17,45,-16.020674,-48.0873352
V8,3,55,55,UBS 5 Granja do Torto,BAIXA,82.22,15,-15.7087626,-47.9162554
V8,4,56,56,UBS 5 Sobradinho (Basevi),CRITICA,14.41,30,-15.6441162,-47.8908713
V8,5,57,57,UBS 02 Paranoá (Quadra 18),ALTA,89.14,45,-15.7707202,-47.7794809
V8,6,58,58,UBS 04 Paranoá (Jardim II),BAIXA,70.9,10,-16.0165971,-47.3858536
V8,7,59,59,UBS 19 São Sebastião (Vila do Boa),MEDIA,62.76,60,-15.8821655,-47.8004155
V8,8,60,60,UBS 12 São Sebastião (São José),BAIXA,91.98,30,-15.9096788,-47.7674599
V8,9,98,98,Centro de Atenção Psicossocial CAPS I Brazlândia,BAIXA,54.96,10,-15.6722857,-48.2083374
V9,1,95,95,Hospital Dia,ALTA,43.31,45,-15.8142352,-47.9093607
V9,2,84,84,UPA Paranoá,ALTA,18.31,20,-15.7699247,-47.7857273
V9,3,87,87,Policlínica de Ceilândia,MEDIA,68.07,45,-15.8248831,-48.1116407
V9,4,83,83,UPA Brazlândia,CRITICA,84.45,60,-15.6652367,-48.2007518
V9,5,100,100,Centro de Atenção Psicossocial CAPS AD III de Samambaia,BAIXA,75.67,60,-15.8750899,-48.1011611
V9,6,69,69,UBS 9 Ceilândia,ALTA,72.45,30,-15.846576,-48.1261521
V9,7,70,70,UBS 10 Ceilândia,CRITICA,85.47,45,-15.824572,-48.1160541
V9,8,71,71,UBS 16 Ceilândia (Sol Nascente),ALTA,63.91,10,-15.8343611,-48.1361191
V9,9,72,72,UBS 1 Brazlândia,BAIXA,68.23,20,-15.6772189,-48.197582
V9,10,86,86,Policlínica de Taguatinga,BAIXA,61.44,30,-15.834984,-48.0602371
V9,11,93,93,Hospital Veterinário de Brasília (HVEP),MEDIA,54.56,15,-15.8169079,-48.073732
V10,1,94,94,Centro de Saúde 01 Asa Sul,BAIXA,30.12,15,-15.8319916,-47.9107407
V10,2,36,36,UBS 01 Cruzeiro,CRITICA,56.78,30,-15.797046,-47.934145
V10,3,37,37,UBS 02 Cruzeiro,BAIXA,12.41,15,-15.783503,-47.9385418
V10,4,38,38,UBS Metropolitana,ALTA,81.95,20,-15.8794808,-47.97442
V10,5,39,39,UBS 01 Candangolândia,MEDIA,39.49,10,-15.8518716,-47.9544504
V10,6,40,40,UBS 01 Núcleo Bandeirante,ALTA,20.5,15,-15.8698423,-47.9668616
V10,7,41,41,UBS 01 Riacho Fundo I,ALTA,64.33,60,-15.8861057,-48.0237135
V10,8,42,42,UBS 02 Riacho Fundo I,ALTA,11.69,30,-15.8793864,-48.0036153
V10,9,85,85,UPA Riacho Fundo II,BAIXA,60.83,45,-15.8999357,-48.0427049
