id,id_hospital,nome,lat,lng,prioridade,peso_kg,penalidade,tempo_estimado_entrega_min
1,1,Hospital de Base do Distrito Federal (IHBDF),-15.8006717,-47.8891625,BAIXA,65.33,1.0,30
2,2,Hospital Regional da Asa Norte (HRAN),-15.7847168,-47.8841754,ALTA,21.5,5.0,10
3,3,Hospital Universitário de Brasília (HUB),-15.771302,-47.8743633,BAIXA,83.56,1.0,60
4,4,Hospital Materno Infantil de Brasília (HMIB),-15.8238177,-47.8975294,ALTA,92.84,5.0,15
5,5,Hospital Regional de Taguatinga (HRT),-15.8226725,-48.0691403,MEDIA,10.44,2.0,20
6,6,Hospital Regional de Ceilândia (HRC),-15.8151346,-48.0970021,MEDIA,54.51,2.0,45
7,7,Hospital Regional do Gama (HRG),-16.023695,-48.0697835,ALTA,27.25,5.0,20
8,8,Hospital Regional de Sobradinho (HRS),-15.6484601,-47.7931691,ALTA,23.66,5.0,20
9,9,Hospital Regional de Planaltina (HRPL),-15.6253154,-47.653472,ALTA,45.21,5.0,30
10,10,Hospital Regional de Samambaia (HRSAM),-15.8532367,-48.073427,MEDIA,65.96,2.0,45
11,11,Hospital Regional de Santa Maria (HRSM),-16.0401658,-48.0372133,CRITICA,64.82,10.0,30
12,12,Hospital Regional de Brazlândia (HRBZ),-15.6752771,-48.2036875,MEDIA,68.75,2.0,45
13,13,Hospital Regional do Paranoá (HRP),-15.7814012,-47.7824032,CRITICA,95.41,10.0,15
14,14,Hospital Regional do Guará (HRGU),-15.8179263,-47.9866569,ALTA,47.21,5.0,45
15,15,Hospital de Apoio de Brasília (HAB),-15.7559401,-47.9226774,ALTA,69.32,5.0,60
16,16,Hospital da Criança de Brasília (HCB),-15.7584695,-47.9199696,MEDIA,71.7,2.0,60
17,17,Hospital São Vicente de Paulo (HSVP),-15.8372373,-48.0600197,CRITICA,49.24,10.0,60
18,18,Hospital das Forças Armadas (HFA),-15.8012324,-47.9373345,MEDIA,49.19,2.0,30
19,19,Hospital de Força Aérea de Brasília (HFAB),-15.8708877,-47.9031913,MEDIA,70.54,2.0,45
20,20,Hospital Militar de Área de Brasília (HMAB),-15.7727535,-47.9308535,ALTA,46.53,5.0,45
21,21,Hospital Naval de Brasília,-15.8147858,-47.9150437,BAIXA,74.87,1.0,15
22,22,UBS 01 Taguatinga Norte,-15.7955812,-48.0672329,MEDIA,92.38,2.0,10
23,23,UBS 02 Taguatinga Norte,-15.8104012,-48.0635838,CRITICA,27.39,10.0,60
24,24,UBS 03 Taguatinga Norte,-15.8331049,-48.0871074,CRITICA,12.56,10.0,30
25,25,UBS 05 Taguatinga Sul,-15.8508435,-48.0472145,ALTA,45.31,5.0,60
26,26,UBS 06 Taguatinga Sul,-15.8362722,-48.0642048,CRITICA,78.11,10.0,60
27,27,UBS 07 Taguatinga Norte,-15.8009132,-48.0946952,ALTA,36.45,5.0,60
28,28,UBS 01 Santa Maria,-16.027209,-48.027008,BAIXA,46.41,1.0,20
29,29,UBS 02 Santa Maria,-16.0079432,-47.9904955,CRITICA,86.69,10.0,10
30,30,UBS 01 São Sebastião,-15.902439,-47.7729157,BAIXA,82.6,1.0,60
31,31,UBS 01 Recanto das Emas,-15.918988,-48.1049332,BAIXA,65.33,1.0,60
32,32,UBS 01 Estrutural,-15.7836403,-47.9998093,CRITICA,49.9,10.0,60
33,33,UBS 01 Varjão,-15.7100527,-47.8798177,MEDIA,27.38,2.0,15
34,34,UBS 01 Itapoã,-15.7403029,-47.7649014,MEDIA,40.31,2.0,15
35,35,UBS 01 Jardins Mangueiral,-15.8946668,-47.81744533,MEDIA,68.15,2.0,60
36,36,UBS 01 Cruzeiro,-15.797046,-47.934145,ALTA,95.41,5.0,20
37,37,UBS 02 Cruzeiro,-15.783503,-47.9385418,MEDIA,89.45,2.0,20
38,38,UBS Metropolitana,-15.8794808,-47.97442,MEDIA,56.5,2.0,15
39,39,UBS 01 Candangolândia,-15.8518716,-47.9544504,BAIXA,14.58,1.0,30
40,40,UBS 01 Núcleo Bandeirante,-15.8698423,-47.9668616,MEDIA,14.88,2.0,45
41,41,UBS 01 Riacho Fundo I,-15.8861057,-48.0237135,BAIXA,42.82,1.0,60
42,42,UBS 02 Riacho Fundo I,-15.8793864,-48.0036153,ALTA,35.81,5.0,30
43,43,UBS 01 Riacho Fundo II,-15.9093234,-48.0607011,MEDIA,43.25,2.0,20
44,44,UBS 01 Águas Claras,-15.8543943,-48.038247,MEDIA,70.29,2.0,10
45,45,UBS 01 Vicente Pires,-15.819232,-48.0246858,MEDIA,44.33,2.0,20
46,46,UBS 01 Fercal,-15.6005831,-47.8731391,MEDIA,51.37,2.0,15
47,47,UBS 01 Sobradinho II,-15.6438775,-47.8268803,BAIXA,69.85,1.0,10
48,48,UBS 02 Sobradinho,-15.6438514,-47.8346051,CRITICA,86.93,10.0,45
49,49,UBS 01 Planaltina (Vila Buritis),-15.6177452,-47.6436237,CRITICA,91.6,10.0,30
50,50,UBS 02 Planaltina,-15.534044,-47.7114942,CRITICA,38.36,10.0,45
51,51,UBS 01 Paranoá,-15.7692068,-47.7825042,CRITICA,86.84,10.0,45
52,52,UBS 01 Lago Norte,-15.725496,-47.8764125,BAIXA,48.28,1.0,10
53,53,UBS 01 Lago Sul,-15.8470842,-47.85473,CRITICA,62.8,10.0,20
54,54,UBS 01 Gama,-16.020674,-48.0873352,CRITICA,34.17,10.0,60
55,55,UBS 5 Granja do Torto,-15.7087626,-47.9162554,BAIXA,25.14,1.0,60
56,56,UBS 5 Sobradinho (Basevi),-15.6441162,-47.8908713,MEDIA,72.54,2.0,15
57,57,UBS 02 Paranoá (Quadra 18),-15.7707202,-47.7794809,MEDIA,71.0,2.0,10
58,58,UBS 04 Paranoá (Jardim II),-16.0165971,-47.3858536,CRITICA,43.49,10.0,15
59,59,UBS 19 São Sebastião (Vila do Boa),-15.8821655,-47.8004155,MEDIA,29.12,2.0,60
60,60,UBS 12 São Sebastião (São José),-15.9096788,-47.7674599,MEDIA,62.77,2.0,15
61,61,UUBS 5 Santa Maria,-16.0103369,-48.0024363,ALTA,61.17,5.0,10
62,62,UBS 8 Santa Maria,-16.0144018,-47.9910585,ALTA,62.59,5.0,20
63,63,UBS 9 Santa Maria,-16.0197626,-48.0251117,MEDIA,21.4,2.0,15
64,64,UBS 2 Gama,-16.0365657,-48.0637311,ALTA,21.02,5.0,15
65,65,UBS 4 Gama,-16.0260783,-48.0596889,MEDIA,90.88,2.0,45
66,66,UBS 3 Guará,-15.8495004,-47.9708464,BAIXA,24.07,1.0,10
67,67,UBS 10 Recanto das Emas,-15.9300077,-48.1089857,MEDIA,20.81,2.0,15
68,68,UBS 7 Ceilândia,-15.7957206,-48.1335935,CRITICA,42.27,10.0,45
69,69,UBS 9 Ceilândia,-15.846576,-48.1261521,MEDIA,74.8,2.0,30
70,70,UBS 10 Ceilândia,-15.824572,-48.1160541,BAIXA,61.11,1.0,15
71,71,UBS 16 Ceilândia (Sol Nascente),-15.8343611,-48.1361191,ALTA,84.51,5.0,15
72,72,UBS 1 Brazlândia,-15.6772189,-48.197582,MEDIA,69.91,2.0,15
73,73,UPA Ceilândia I,-15.8080671,-48.1384168,CRITICA,34.36,10.0,60
74,74,UPA Ceilândia II,-15.790951,-48.1376898,BAIXA,68.85,1.0,10
75,75,UPA Recanto das Emas,-15.9117854,-48.0600112,MEDIA,33.68,2.0,45
76,76,UPA Samambaia,-15.8831351,-48.102718,BAIXA,58.26,1.0,45
77,77,UPA Sobradinho,-15.6395176,-47.8222068,MEDIA,85.1,2.0,15
78,78,UPA São Sebastião,-15.9009588,-47.7801697,ALTA,65.99,5.0,20
79,79,UPA Núcleo Bandeirante,-15.8759336,-47.9847267,ALTA,88.68,5.0,60
80,80,UPA Vicente Pires,-15.7971406,-48.0272268,MEDIA,66.17,2.0,60
81,81,UPA Planaltina,-15.6168213,-47.6912723,BAIXA,50.78,1.0,45
82,82,UPA Gama,-16.0149838,-48.0567389,CRITICA,60.26,10.0,10
83,83,UPA Brazlândia,-15.6652367,-48.2007518,BAIXA,79.59,1.0,60
84,84,UPA Paranoá,-15.7699247,-47.7857273,MEDIA,62.49,2.0,10
85,85,UPA Riacho Fundo II,-15.8999357,-48.0427049,MEDIA,60.43,2.0,30
86,86,Policlínica de Taguatinga,-15.834984,-48.0602371,ALTA,44.39,5.0,45
87,87,Policlínica de Ceilândia,-15.8248831,-48.1116407,MEDIA,19.92,2.0,60
88,88,Policlínica do Gama,-16.0189655,-48.0708479,ALTA,11.92,5.0,45
89,89,Policlínica do Riacho Fundo 1,-15.881162,-48.0106085,ALTA,96.43,5.0,15
90,90,Hospital Sarah Kubitschek (Asa Sul),-15.7994698,-47.8936904,BAIXA,73.01,1.0,20
91,91,Hospital Sarah Kubitschek (Lago Norte),-15.7525437,-47.8326085,ALTA,49.98,5.0,10
92,92,Instituto de Cardiologia do DF (ICDF),-15.8009982,-47.9373327,BAIXA,79.97,1.0,20
93,93,Hospital Veterinário de Brasília (HVEP),-15.8169079,-48.073732,CRITICA,69.66,10.0,20
94,94,Centro de Saúde 01 Asa Sul,-15.8319916,-47.9107407,MEDIA,73.57,2.0,60
95,95,Hospital Dia,-15.8142352,-47.9093607,ALTA,80.54,5.0,60
96,96,Centro de Saúde Básica 11 - DST/AIDS,-15.7736077,-47.8929665,MEDIA,56.36,2.0,45
97,97,UBS 03 Vila Planalto,-15.795264,-47.8485535,MEDIA,53.88,2.0,45
98,98,Centro de Atenção Psicossocial CAPS I Brazlândia,-15.6722857,-48.2083374,BAIXA,50.99,1.0,15
99,99,Centro de Atenção Psicossocial CAPS II Planaltina,-15.624939,-47.6512695,MEDIA,97.8,2.0,20
100,100,Centro de Atenção Psicossocial CAPS AD III de Samambaia,-15.8750899,-48.1011611,ALTA,52.88,5.0,10
